[
  {
    "route_name": "AS-1",
    "bus_num": "2057",
    "starting_point": "태릉",
    "ending_point": "더존_강촌",
    "route_type1": "출근",
    "route_type2": "직행",
    "route_type3": "수도권",
    "bus_stops": [
      {
        "name": "태릉",
        "location": "태릉입구역(6호선) 7번 출구 전방 100m 버스정류장 옆",
        "latitude": "37.617842488123095",
        "longitude": "127.07656907083147",
        "departure_time": "07:20"
      },
      {
        "name": "더존_강촌",
        "latitude": "37.7577967099585",
        "longitude": "127.63755797028342"
      }
    ]
  },
  {
    "route_name": "AS-2",
    "bus_num": "1033",
    "starting_point": "태릉",
    "ending_point": "더존_강촌",
    "route_type1": "출근",
    "route_type2": "경유",
    "route_type3": "수도권",
    "bus_stops": [
      {
        "name": "태릉",
        "location": "태릉입구역(6호선) 7번 출구 전방 100m 버스정류장 옆",
        "latitude": "37.617842488123095",
        "longitude": "127.07656907083147",
        "departure_time": "07:20"
      },
      {
        "name": "구리",
        "location": "구리패션아울렛 일룸 구리남양주점 앞",
        "latitude": "37.60320736234289",
        "longitude": "127.14653702691739",
        "departure_time": "07:35"
      },
      {
        "name": "더존_강촌",
        "latitude": "37.7577967099585",
        "longitude": "127.63755797028342"
      }
    ]
  },
  {
    "route_name": "AS-3",
    "bus_num": "1034",
    "starting_point": "상봉",
    "ending_point": "더존_강촌",
    "route_type1": "출근",
    "route_type2": "직행",
    "route_type3": "수도권",
    "bus_stops": [
      {
        "name": "상봉",
        "location": "상봉역(7호선) 2번 출구 전방 130m 서브웨이(상봉역점) 앞",
        "latitude": "37.59678993791444",
        "longitude": "127.08762196562873",
        "departure_time": "07:20"
      },
      {
        "name": "더존_강촌",
        "latitude": "37.7577967099585",
        "longitude": "127.63755797028342"
      }
    ]
  },
  {
    "route_name": "AS-4",
    "bus_num": "2060",
    "starting_point": "잠실",
    "ending_point": "더존_강촌",
    "route_type1": "출근",
    "route_type2": "직행",
    "route_type3": "수도권",
    "bus_stops": [
      {
        "name": "잠실",
        "location": "잠실역(8호선) 9번 출구 우측 100m 삼성생명잠실빌딩 횡단보도 앞",
        "latitude": "37.514581681759296",
        "longitude": "127.1031295055446",
        "departure_time": "07:25"
      },
      {
        "name": "더존_강촌",
        "latitude": "37.7577967099585",
        "longitude": "127.63755797028342"
      }
    ]
  },
  {
    "route_name": "AS-5",
    "bus_num": "1030",
    "starting_point": "잠실",
    "ending_point": "더존_강촌",
    "route_type1": "출근",
    "route_type2": "경유",
    "route_type3": "수도권",
    "bus_stops": [
      {
        "name": "잠실",
        "location": "잠실역(8호선) 9번 출구 우측 100m 삼성생명잠실빌딩 횡단보도 앞",
        "latitude": "37.514581681759296",
        "longitude": "127.1031295055446",
        "departure_time": "07:25"
      },
      {
        "name": "천호",
        "location": "천호역(5호선) 1번 출구 전방 150m 버스정류장 옆",
        "latitude": "37.53933204443964",
        "longitude": "127.12217826351116",
        "departure_time": "07:40"
      },
      {
        "name": "더존_강촌",
        "latitude": "37.7577967099585",
        "longitude": "127.63755797028342"
      }
    ]
  },
  {
    "route_name": "AS-6",
    "bus_num": "1021",
    "starting_point": "강변",
    "ending_point": "더존_강촌",
    "route_type1": "출근",
    "route_type2": "직행",
    "route_type3": "수도권",
    "bus_stops": [
      {
        "name": "강변",
        "location": "강변역 테크노마트 지하주차장 입구(프라임상가방면)",
        "latitude": "37.53671878357462",
        "longitude": "127.09571221397782",
        "departure_time": "07:35"
      },
      {
        "name": "더존_강촌",
        "latitude": "37.7577967099585",
        "longitude": "127.63755797028342"
      }
    ]
  },
  {
    "route_name": "AS-7",
    "bus_num": "1027",
    "starting_point": "강변",
    "ending_point": "더존_강촌",
    "route_type1": "출근",
    "route_type2": "직행",
    "route_type3": "수도권",
    "bus_stops": [
      {
        "name": "강변",
        "location": "강변역 테크노마트 지하주차장 입구(프라임상가방면)",
        "latitude": "37.53671878357462",
        "longitude": "127.09571221397782",
        "departure_time": "07:35"
      },
      {
        "name": "더존_강촌",
        "latitude": "37.7577967099585",
        "longitude": "127.63755797028342"
      }
    ]
  },
  {
    "route_name": "AS-8",
    "bus_num": "1031",
    "starting_point": "천호",
    "ending_point": "더존_강촌",
    "route_type1": "출근",
    "route_type2": "직행",
    "route_type3": "수도권",
    "bus_stops": [
      {
        "name": "천호",
        "location": "천호역(5호선) 1번 출구 전방 150m 버스정류장 옆",
        "latitude": "37.53933204443964",
        "longitude": "127.12217826351116",
        "departure_time": "07:40"
      },
      {
        "name": "더존_강촌",
        "latitude": "37.7577967099585",
        "longitude": "127.63755797028342"
      }
    ]
  },
  {
    "route_name": "AS-9",
    "bus_num": "2235",
    "starting_point": "평내호평",
    "ending_point": "더존_강촌",
    "route_type1": "출근",
    "route_type2": "직행",
    "route_type3": "수도권",
    "bus_stops": [
      {
        "name": "평내호평",
        "location": "평내호평역 1번 출구 120m 에이스프라자빌딩 신한은행(호평지점) 앞 (바불리 옛날왕만두 앞)",
        "latitude": "37.654181640862596",
        "longitude": "127.24391915664651",
        "departure_time": "07:40"
      },
      {
        "name": "더존_강촌",
        "latitude": "37.7577967099585",
        "longitude": "127.63755797028342"
      }
    ]
  },
  {
    "route_name": "BS-1",
    "bus_num": "1",
    "starting_point": "더존_강촌",
    "ending_point": "강변",
    "route_type1": "퇴근",
    "route_type2": "직행",
    "route_type3": "수도권",
    "bus_stops": [
      {
        "name": "더존_강촌",
        "location": "1번",
        "latitude": "37.7577967099585",
        "longitude": "127.63755797028342",
        "departure_time": "18:15"
      },
      {
        "name": "강변",
        "location": "강변역 테크노마트 지하주차장 입구(프라임상가방면)",
        "latitude": "37.53671878357462",
        "longitude": "127.09571221397782"
      }
    ]
  },
  {
    "route_name": "BS-2",
    "bus_num": "2",
    "starting_point": "더존_강촌",
    "ending_point": "강변",
    "route_type1": "퇴근",
    "route_type2": "직행",
    "route_type3": "수도권",
    "bus_stops": [
      {
        "name": "더존_강촌",
        "location": "2번",
        "latitude": "37.7577967099585",
        "longitude": "127.63755797028342",
        "departure_time": "18:15"
      },
      {
        "name": "강변",
        "location": "강변역 테크노마트 지하주차장 입구(프라임상가방면)",
        "latitude": "37.53671878357462",
        "longitude": "127.09571221397782"
      }
    ]
  },
  {
    "route_name": "BS-3",
    "bus_num": "3",
    "starting_point": "더존_강촌",
    "ending_point": "천호",
    "route_type1": "퇴근",
    "route_type2": "직행",
    "route_type3": "수도권",
    "bus_stops": [
      {
        "name": "더존_강촌",
        "location": "3번",
        "latitude": "37.7577967099585",
        "longitude": "127.63755797028342",
        "departure_time": "18:15"
      },
      {
        "name": "천호",
        "location": "천호역(5호선) 10번 출구 전방 150m 버스정류장 옆",
        "latitude": "37.53898773710994",
        "longitude": "127.12186371487952"
      }
    ]
  },
  {
    "route_name": "BS-4",
    "bus_num": "4",
    "starting_point": "더존_강촌",
    "ending_point": "잠실",
    "route_type1": "퇴근",
    "route_type2": "경유",
    "route_type3": "수도권",
    "bus_stops": [
      {
        "name": "더존_강촌",
        "location": "4번",
        "latitude": "37.7577967099585",
        "longitude": "127.63755797028342",
        "departure_time": "18:15"
      },
      {
        "name": "천호",
        "location": "천호역(5호선) 10번 출구 전방 150m 버스정류장 옆",
        "latitude": "37.53898773710994",
        "longitude": "127.12186371487952"
      },
      {
        "name": "잠실",
        "location": "잠실역(2호선) 8번 출구 앞 버스정류장(잠실역 방면)",
        "latitude": "37.514035653406545",
        "longitude": "127.10159327577227"
      }
    ]
  },
  {
    "route_name": "BS-5",
    "bus_num": "5",
    "starting_point": "더존_강촌",
    "ending_point": "태릉",
    "route_type1": "퇴근",
    "route_type2": "직행",
    "route_type3": "수도권",
    "bus_stops": [
      {
        "name": "더존_강촌",
        "location": "5번",
        "latitude": "37.7577967099585",
        "longitude": "127.63755797028342",
        "departure_time": "18:15"
      },
      {
        "name": "태릉",
        "location": "태릉입구역(6호선) 6번 출구 앞",
        "latitude": "37.6179711682694",
        "longitude": "127.07612179405557"
      }
    ]
  },
  {
    "route_name": "BS-6",
    "bus_num": "6",
    "starting_point": "더존_강촌",
    "ending_point": "평내호평",
    "route_type1": "퇴근",
    "route_type2": "직행",
    "route_type3": "수도권",
    "bus_stops": [
      {
        "name": "더존_강촌",
        "location": "6번",
        "latitude": "37.7577967099585",
        "longitude": "127.63755797028342",
        "departure_time": "18:15"
      },
      {
        "name": "평내호평",
        "location": "평내호평역 버스정류장(효성, 세종아파트 방면)",
        "latitude": "37.65345477137678",
        "longitude": "127.243593812259"
      }
    ]
  },
  {
    "route_name": "BS-7",
    "bus_num": "7",
    "starting_point": "더존_강촌",
    "ending_point": "상봉",
    "route_type1": "퇴근",
    "route_type2": "직행",
    "route_type3": "수도권",
    "bus_stops": [
      {
        "name": "더존_강촌",
        "location": "7번",
        "latitude": "37.7577967099585",
        "longitude": "127.63755797028342",
        "departure_time": "18:15"
      },
      {
        "name": "상봉",
        "location": "상봉역(7호선) 1번 출구 앞",
        "latitude": "37.59659306351692",
        "longitude": "127.0857929796146"
      }
    ]
  },
  {
    "route_name": "BS-8",
    "bus_num": "8",
    "starting_point": "더존_강촌",
    "ending_point": "구리",
    "route_type1": "퇴근",
    "route_type2": "직행",
    "route_type3": "수도권",
    "bus_stops": [
      {
        "name": "더존_강촌",
        "location": "8번",
        "latitude": "37.7577967099585",
        "longitude": "127.63755797028342",
        "departure_time": "18:15"
      },
      {
        "name": "구리",
        "location": "구리역 롯데백화점 앞 버스정류장(돌다리사거리 방면)",
        "latitude": "37.60243758710021",
        "longitude": "127.14424514881044"
      }
    ]
  },
  {
    "route_name": "BS-9",
    "bus_num": "9",
    "starting_point": "더존_강촌",
    "ending_point": "강변",
    "route_type1": "퇴근",
    "route_type2": "직행",
    "route_type3": "수도권",
    "bus_stops": [
      {
        "name": "더존_강촌",
        "location": "정문",
        "latitude": "37.7577967099585",
        "longitude": "127.63755797028342",
        "departure_time": "21:00"
      },
      {
        "name": "강변",
        "location": "강변역 테크노마트 지하주차장 입구(프라임상가방면)",
        "latitude": "37.53671878357462",
        "longitude": "127.09571221397782"
      }
    ]
  },
  {
    "route_name": "AC-1",
    "bus_num": "2233",
    "starting_point": "후평동",
    "ending_point": "더존_을지",
    "route_type1": "출근",
    "route_type2": "경유",
    "route_type3": "춘천",
    "bus_stops": [
      {
        "name": "후평동",
        "location": "포스코아파트 정문 앞 택시승강장",
        "latitude": "37.87985049382421",
        "longitude": "127.74981080550329",
        "departure_time": "06:40"
      },
      {
        "name": "안디옥교회",
        "location": "안디옥교회 맞은편(퇴계 주공4단지아파트 방면)",
        "latitude": "37.853398734352",
        "longitude": "127.74455467256321",
        "departure_time": "06:50"
      },
      {
        "name": "무릉공원",
        "location": "무릉공원(LG베스트샵 석사점 맞은편)",
        "latitude": "37.8559413534525",
        "longitude": "127.73815737748144",
        "departure_time": "06:52"
      },
      {
        "name": "남춘천역",
        "location": "남춘천역 버스정류장(이마트 방면)",
        "latitude": "37.86405599792324",
        "longitude": "127.7233598196542",
        "departure_time": "06:55"
      },
      {
        "name": "이마트",
        "location": "이마트 앞",
        "latitude": "37.86363139702936",
        "longitude": "127.71950608842425",
        "departure_time": "07:00"
      },
      {
        "name": "더존_을지",
        "location": "정문",
        "latitude": "37.566171350393866",
        "longitude": "126.98080587687647"
      }
    ]
  },
  {
    "route_name": "AC-2",
    "bus_num": "1960",
    "starting_point": "후평동",
    "ending_point": "더존_강촌",
    "route_type1": "출근",
    "route_type2": "경유",
    "route_type3": "춘천",
    "bus_stops": [
      {
        "name": "후평동",
        "location": "포스코아파트 후문 맞은편 버스정류장(팔호광장 방면)",
        "latitude": "37.8816762461779",
        "longitude": "127.74676027181728",
        "departure_time": "07:45"
      },
      {
        "name": "팔호광장",
        "location": "팔호광장 하나은행 맞은편 CU편의점 앞",
        "latitude": "37.876555997953204",
        "longitude": "127.73398144112052",
        "departure_time": "07:50"
      },
      {
        "name": "이마트",
        "location": "이마트 앞",
        "latitude": "37.86363139702936",
        "longitude": "127.71950608842425",
        "departure_time": "08:00"
      },
      {
        "name": "더존_강촌",
        "latitude": "37.7577967099585",
        "longitude": "127.63755797028342"
      }
    ]
  },
  {
    "route_name": "AC-3",
    "bus_num": "1964",
    "starting_point": "후평동",
    "ending_point": "더존_강촌",
    "route_type1": "출근",
    "route_type2": "경유",
    "route_type3": "춘천",
    "bus_stops": [
      {
        "name": "후평동",
        "location": "포스코아파트 후문 맞은편 버스정류장(팔호광장 방면)",
        "latitude": "37.8816762461779",
        "longitude": "127.74676027181728",
        "departure_time": "07:45"
      },
      {
        "name": "팔호광장",
        "location": "팔호광장 하나은행 맞은편 CU편의점 앞",
        "latitude": "37.876555997953204",
        "longitude": "127.73398144112052",
        "departure_time": "07:50"
      },
      {
        "name": "이마트",
        "location": "이마트 앞",
        "latitude": "37.86363139702936",
        "longitude": "127.71950608842425",
        "departure_time": "08:00"
      },
      {
        "name": "더존_강촌",
        "latitude": "37.7577967099585",
        "longitude": "127.63755797028342"
      }
    ]
  }
]
